[
  {
    "name": "Harbin International Ice and Snow Sculpture Festival",
    "slug": "harbin-international-ice-and-snow-sculpture-festival",
    "category": "festival",
    "description": "World's largest ice and snow festival featuring massive illuminated ice sculptures and buildings.",
    "image_url": null,
    "start_month": 1,
    "end_month": 1,
    "longitude": 126.65,
    "latitude": 45.75,
    "country": "China",
    "region": "Asia",
    "scale": 9,
    "crowd_level": "busy",
    "booking_destination_id": null,
    "getyourguide_location_id": null
  },
  {
    "name": "Pongal",
    "slug": "pongal",
    "category": "festival",
    "description": "Tamil harvest festival celebrating the sun god with kolam art, bonfires, and decorated cattle.",
    "image_url": null,
    "start_month": 1,
    "end_month": 1,
    "longitude": 80.2707,
    "latitude": 13.0827,
    "country": "India",
    "region": "Asia",
    "scale": 8,
    "crowd_level": "busy",
    "booking_destination_id": null,
    "getyourguide_location_id": null
  },
  {
    "name": "Sydney Festival",
    "slug": "sydney-festival",
    "category": "festival",
    "description": "Three-week arts festival across Sydney with theater, dance, music, and visual arts.",
    "image_url": null,
    "start_month": 1,
    "end_month": 1,
    "longitude": 151.2093,
    "latitude": -33.8688,
    "country": "Australia",
    "region": "Oceania",
    "scale": 7,
    "crowd_level": "busy",
    "booking_destination_id": null,
    "getyourguide_location_id": null
  },
  {
    "name": "Timkat",
    "slug": "timkat",
    "category": "festival",
    "description": "Ethiopian Orthodox celebration of Epiphany with colorful processions and ritual bathing.",
    "image_url": null,
    "start_month": 1,
    "end_month": 1,
    "longitude": 37.4521,
    "latitude": 12.603,
    "country": "Ethiopia",
    "region": "Africa",
    "scale": 7,
    "crowd_level": "busy",
    "booking_destination_id": null,
    "getyourguide_location_id": null
  },
  {
    "name": "Up Helly Aa",
    "slug": "up-helly-aa",
    "category": "festival",
    "description": "Shetland fire festival involving a torchlit procession and burning of a Viking galley.",
    "image_url": null,
    "start_month": 1,
    "end_month": 1,
    "longitude": -1.1451,
    "latitude": 60.1551,
    "country": "United Kingdom",
    "region": "Europe",
    "scale": 6,
    "crowd_level": "busy",
    "booking_destination_id": null,
    "getyourguide_location_id": null
  },
  {
    "name": "Thaipusam",
    "slug": "thaipusam",
    "category": "festival",
    "description": "Hindu festival of devotion featuring body piercing and kavadi carrying at Batu Caves.",
    "image_url": null,
    "start_month": 1,
    "end_month": 1,
    "longitude": 101.6839,
    "latitude": 3.2372,
    "country": "Malaysia",
    "region": "Asia",
    "scale": 7,
    "crowd_level": "busy",
    "booking_destination_id": null,
    "getyourguide_location_id": null
  },
  {
    "name": "Sundance Film Festival",
    "slug": "sundance-film-festival",
    "category": "festival",
    "description": "Premier independent film festival in Park City, Utah showcasing emerging filmmakers.",
    "image_url": null,
    "start_month": 1,
    "end_month": 1,
    "longitude": -111.498,
    "latitude": 40.6461,
    "country": "United States",
    "region": "North America",
    "scale": 8,
    "crowd_level": "busy",
    "booking_destination_id": null,
    "getyourguide_location_id": null
  },
  {
    "name": "Kaapse Klopse",
    "slug": "kaapse-klopse",
    "category": "festival",
    "description": "Cape Town minstrel carnival with colorful costumes, music, and dancing through the streets.",
    "image_url": null,
    "start_month": 1,
    "end_month": 1,
    "longitude": 18.4241,
    "latitude": -33.9249,
    "country": "South Africa",
    "region": "Africa",
    "scale": 6,
    "crowd_level": "busy",
    "booking_destination_id": null,
    "getyourguide_location_id": null
  },
  {
    "name": "Junkanoo",
    "slug": "junkanoo",
    "category": "festival",
    "description": "Bahamian street parade with elaborate costumes, goatskin drums, and cowbells at dawn.",
    "image_url": null,
    "start_month": 1,
    "end_month": 1,
    "longitude": -77.3504,
    "latitude": 25.0443,
    "country": "Bahamas",
    "region": "North America",
    "scale": 7,
    "crowd_level": "busy",
    "booking_destination_id": null,
    "getyourguide_location_id": null
  },
  {
    "name": "Ati-Atihan Festival",
    "slug": "ati-atihan-festival",
    "category": "festival",
    "description": "Philippine festival honoring the Santo Nino with tribal dance, drumming, and face painting.",
    "image_url": null,
    "start_month": 1,
    "end_month": 1,
    "longitude": 122.3667,
    "latitude": 11.7167,
    "country": "Philippines",
    "region": "Asia",
    "scale": 7,
    "crowd_level": "busy",
    "booking_destination_id": null,
    "getyourguide_location_id": null
  },
  {
    "name": "Makar Sankranti Kite Festival",
    "slug": "makar-sankranti-kite-festival",
    "category": "festival",
    "description": "Ahmedabad kite festival where millions of colorful kites fill the sky celebrating the harvest.",
    "image_url": null,
    "start_month": 1,
    "end_month": 1,
    "longitude": 72.5714,
    "latitude": 23.0225,
    "country": "India",
    "region": "Asia",
    "scale": 8,
    "crowd_level": "busy",
    "booking_destination_id": null,
    "getyourguide_location_id": null
  },
  {
    "name": "Festa di Sant'Agata",
    "slug": "festa-di-sant-agata",
    "category": "festival",
    "description": "Catania's patron saint festival with massive candlelit processions and fireworks.",
    "image_url": null,
    "start_month": 1,
    "end_month": 2,
    "longitude": 15.083,
    "latitude": 37.5079,
    "country": "Italy",
    "region": "Europe",
    "scale": 7,
    "crowd_level": "busy",
    "booking_destination_id": null,
    "getyourguide_location_id": null
  },
  {
    "name": "Carnival of Venice",
    "slug": "carnival-of-venice",
    "category": "festival",
    "description": "Historic carnival known for elaborate masks, grand balls, and gondola parades.",
    "image_url": null,
    "start_month": 2,
    "end_month": 2,
    "longitude": 12.3155,
    "latitude": 45.4408,
    "country": "Italy",
    "region": "Europe",
    "scale": 10,
    "crowd_level": "busy",
    "booking_destination_id": null,
    "getyourguide_location_id": null
  },
  {
    "name": "Rio Carnival",
    "slug": "rio-carnival",
    "category": "festival",
    "description": "World's largest carnival with samba school parades at the Sambadrome and street parties.",
    "image_url": null,
    "start_month": 2,
    "end_month": 2,
    "longitude": -43.1729,
    "latitude": -22.9068,
    "country": "Brazil",
    "region": "South America",
    "scale": 10,
    "crowd_level": "busy",
    "booking_destination_id": null,
    "getyourguide_location_id": null
  },
  {
    "name": "Chinese New Year",
    "slug": "chinese-new-year",
    "category": "festival",
    "description": "Largest annual human migration celebrating the lunar new year with fireworks, dragon dances, and feasts.",
    "image_url": null,
    "start_month": 1,
    "end_month": 2,
    "longitude": 116.4074,
    "latitude": 39.9042,
    "country": "China",
    "region": "Asia",
    "scale": 10,
    "crowd_level": "busy",
    "booking_destination_id": null,
    "getyourguide_location_id": null
  },
  {
    "name": "Mardi Gras",
    "slug": "mardi-gras",
    "category": "festival",
    "description": "New Orleans celebration with parades, jazz, bead throwing, and elaborate float processions.",
    "image_url": null,
    "start_month": 2,
    "end_month": 2,
    "longitude": -90.0715,
    "latitude": 29.9511,
    "country": "United States",
    "region": "North America",
    "scale": 9,
    "crowd_level": "busy",
    "booking_destination_id": null,
    "getyourguide_location_id": null
  },
  {
    "name": "Carnival of Barranquilla",
    "slug": "carnival-of-barranquilla",
    "category": "festival",
    "description": "UNESCO-recognized carnival blending African, Indigenous, and European traditions with cumbia music.",
    "image_url": null,
    "start_month": 2,
    "end_month": 2,
    "longitude": -74.7813,
    "latitude": 10.9685,
    "country": "Colombia",
    "region": "South America",
    "scale": 8,
    "crowd_level": "busy",
    "booking_destination_id": null,
    "getyourguide_location_id": null
  },
  {
    "name": "Quebec Winter Carnival",
    "slug": "quebec-winter-carnival",
    "category": "festival",
    "description": "World's largest winter carnival with ice canoe races, snow sculptures, and night parades.",
    "image_url": null,
    "start_month": 2,
    "end_month": 2,
    "longitude": -71.208,
    "latitude": 46.8139,
    "country": "Canada",
    "region": "North America",
    "scale": 7,
    "crowd_level": "busy",
    "booking_destination_id": null,
    "getyourguide_location_id": null
  },
  {
    "name": "Sapporo Snow Festival",
    "slug": "sapporo-snow-festival",
    "category": "festival",
    "description": "Massive snow and ice sculpture festival featuring hundreds of intricate creations.",
    "image_url": null,
    "start_month": 2,
    "end_month": 2,
    "longitude": 141.3545,
    "latitude": 43.0618,
    "country": "Japan",
    "region": "Asia",
    "scale": 8,
    "crowd_level": "busy",
    "booking_destination_id": null,
    "getyourguide_location_id": null
  },
  {
    "name": "Losar",
    "slug": "losar",
    "category": "festival",
    "description": "Tibetan New Year celebration with monastery rituals, butter sculptures, and folk dances.",
    "image_url": null,
    "start_month": 2,
    "end_month": 2,
    "longitude": 85.324,
    "latitude": 27.7172,
    "country": "Nepal",
    "region": "Asia",
    "scale": 6,
    "crowd_level": "moderate",
    "booking_destination_id": null,
    "getyourguide_location_id": null
  },
  {
    "name": "Fasching",
    "slug": "fasching",
    "category": "festival",
    "description": "Cologne carnival season with elaborate parades, costumes, and Rosenmontag processions.",
    "image_url": null,
    "start_month": 2,
    "end_month": 2,
    "longitude": 6.9603,
    "latitude": 50.9375,
    "country": "Germany",
    "region": "Europe",
    "scale": 7,
    "crowd_level": "busy",
    "booking_destination_id": null,
    "getyourguide_location_id": null
  },
  {
    "name": "Carnival of Binche",
    "slug": "carnival-of-binche",
    "category": "festival",
    "description": "UNESCO-listed carnival featuring Gilles dancers with ostrich-feather hats throwing oranges.",
    "image_url": null,
    "start_month": 2,
    "end_month": 2,
    "longitude": 4.1678,
    "latitude": 50.4118,
    "country": "Belgium",
    "region": "Europe",
    "scale": 6,
    "crowd_level": "busy",
    "booking_destination_id": null,
    "getyourguide_location_id": null
  },
  {
    "name": "Carnival of Oruro",
    "slug": "carnival-of-oruro",
    "category": "festival",
    "description": "UNESCO Masterpiece carnival with the Diablada dance honoring the Virgin of Socavon.",
    "image_url": null,
    "start_month": 2,
    "end_month": 2,
    "longitude": -67.1142,
    "latitude": -17.9647,
    "country": "Bolivia",
    "region": "South America",
    "scale": 8,
    "crowd_level": "busy",
    "booking_destination_id": null,
    "getyourguide_location_id": null
  },
  {
    "name": "Trinidad and Tobago Carnival",
    "slug": "trinidad-and-tobago-carnival",
    "category": "festival",
    "description": "Caribbean carnival featuring soca and calypso music, mas bands, and J'Ouvert morning celebrations.",
    "image_url": null,
    "start_month": 2,
    "end_month": 2,
    "longitude": -61.2225,
    "latitude": 10.6918,
    "country": "Trinidad and Tobago",
    "region": "South America",
    "scale": 8,
    "crowd_level": "busy",
    "booking_destination_id": null,
    "getyourguide_location_id": null
  },
  {
    "name": "Carnival of Santa Cruz de Tenerife",
    "slug": "carnival-of-santa-cruz-de-tenerife",
    "category": "festival",
    "description": "Second-largest carnival in the world after Rio with elaborate queen competitions and murgas.",
    "image_url": null,
    "start_month": 2,
    "end_month": 2,
    "longitude": -16.2518,
    "latitude": 28.4636,
    "country": "Spain",
    "region": "Europe",
    "scale": 8,
    "crowd_level": "busy",
    "booking_destination_id": null,
    "getyourguide_location_id": null
  },
  {
    "name": "Holi",
    "slug": "holi",
    "category": "festival",
    "description": "Hindu festival of colors where participants throw colored powders and water celebrating spring.",
    "image_url": null,
    "start_month": 3,
    "end_month": 3,
    "longitude": 78.0081,
    "latitude": 27.1767,
    "country": "India",
    "region": "Asia",
    "scale": 10,
    "crowd_level": "busy",
    "booking_destination_id": null,
    "getyourguide_location_id": null
  },
  {
    "name": "Las Fallas",
    "slug": "las-fallas",
    "category": "festival",
    "description": "Valencia festival featuring giant papier-mache figures burned in massive bonfires on the final night.",
    "image_url": null,
    "start_month": 3,
    "end_month": 3,
    "longitude": -0.3763,
    "latitude": 39.4699,
    "country": "Spain",
    "region": "Europe",
    "scale": 9,
    "crowd_level": "busy",
    "booking_destination_id": null,
    "getyourguide_location_id": null
  },
  {
    "name": "St. Patrick's Day",
    "slug": "st-patrick-s-day",
    "category": "festival",
    "description": "Ireland's national celebration with parades, music, and green-themed festivities in Dublin.",
    "image_url": null,
    "start_month": 3,
    "end_month": 3,
    "longitude": -6.2603,
    "latitude": 53.3498,
    "country": "Ireland",
    "region": "Europe",
    "scale": 9,
    "crowd_level": "busy",
    "booking_destination_id": null,
    "getyourguide_location_id": null
  },
  {
    "name": "Nyepi",
    "slug": "nyepi",
    "category": "festival",
    "description": "Balinese Day of Silence preceded by Ogoh-ogoh monster parades and followed by island-wide quiet.",
    "image_url": null,
    "start_month": 3,
    "end_month": 3,
    "longitude": 115.092,
    "latitude": -8.3405,
    "country": "Indonesia",
    "region": "Asia",
    "scale": 7,
    "crowd_level": "quiet",
    "booking_destination_id": null,
    "getyourguide_location_id": null
  },
  {
    "name": "Carnival of Cadiz",
    "slug": "carnival-of-cadiz",
    "category": "festival",
    "description": "Oldest carnival in Spain known for chirigotas satirical song groups and street performances.",
    "image_url": null,
    "start_month": 2,
    "end_month": 3,
    "longitude": -6.2886,
    "latitude": 36.5271,
    "country": "Spain",
    "region": "Europe",
    "scale": 7,
    "crowd_level": "busy",
    "booking_destination_id": null,
    "getyourguide_location_id": null
  },
  {
    "name": "Nowruz",
    "slug": "nowruz",
    "category": "festival",
    "description": "Persian New Year marking the spring equinox with Haft-sin tables, bonfires, and family gatherings.",
    "image_url": null,
    "start_month": 3,
    "end_month": 3,
    "longitude": 51.389,
    "latitude": 35.6892,
    "country": "Iran",
    "region": "Asia",
    "scale": 9,
    "crowd_level": "busy",
    "booking_destination_id": null,
    "getyourguide_location_id": null
  },
  {
    "name": "Hola Mohalla",
    "slug": "hola-mohalla",
    "category": "festival",
    "description": "Sikh warrior festival at Anandpur Sahib with martial arts, horse riding, and mock battles.",
    "image_url": null,
    "start_month": 3,
    "end_month": 3,
    "longitude": 76.4335,
    "latitude": 31.4484,
    "country": "India",
    "region": "Asia",
    "scale": 7,
    "crowd_level": "busy",
    "booking_destination_id": null,
    "getyourguide_location_id": null
  },
  {
    "name": "SXSW",
    "slug": "sxsw",
    "category": "festival",
    "description": "Austin festival combining music, film, and interactive technology conferences and showcases.",
    "image_url": null,
    "start_month": 3,
    "end_month": 3,
    "longitude": -97.7431,
    "latitude": 30.2672,
    "country": "United States",
    "region": "North America",
    "scale": 8,
    "crowd_level": "busy",
    "booking_destination_id": null,
    "getyourguide_location_id": null
  },
  {
    "name": "Phagwah",
    "slug": "phagwah",
    "category": "festival",
    "description": "Guyanese Holi celebration with colored powder, water play, and chowtal singing.",
    "image_url": null,
    "start_month": 3,
    "end_month": 3,
    "longitude": -58.1551,
    "latitude": 6.8013,
    "country": "Guyana",
    "region": "South America",
    "scale": 5,
    "crowd_level": "moderate",
    "booking_destination_id": null,
    "getyourguide_location_id": null
  },
  {
    "name": "Songkran",
    "slug": "songkran",
    "category": "festival",
    "description": "Thai New Year water festival with nationwide water fights, temple visits, and sand pagodas.",
    "image_url": null,
    "start_month": 4,
    "end_month": 4,
    "longitude": 100.5018,
    "latitude": 13.7563,
    "country": "Thailand",
    "region": "Asia",
    "scale": 9,
    "crowd_level": "busy",
    "booking_destination_id": null,
    "getyourguide_location_id": null
  },
  {
    "name": "Semana Santa",
    "slug": "semana-santa",
    "category": "festival",
    "description": "Seville's Holy Week with dramatic hooded processions carrying elaborate religious floats.",
    "image_url": null,
    "start_month": 3,
    "end_month": 4,
    "longitude": -5.9823,
    "latitude": 37.3886,
    "country": "Spain",
    "region": "Europe",
    "scale": 9,
    "crowd_level": "busy",
    "booking_destination_id": null,
    "getyourguide_location_id": null
  },
  {
    "name": "Cherry Blossom Festival",
    "slug": "cherry-blossom-festival",
    "category": "festival",
    "description": "Hanami tradition of picnicking under cherry blossoms in parks across Tokyo and Kyoto.",
    "image_url": null,
    "start_month": 3,
    "end_month": 4,
    "longitude": 139.6503,
    "latitude": 35.6762,
    "country": "Japan",
    "region": "Asia",
    "scale": 9,
    "crowd_level": "busy",
    "booking_destination_id": null,
    "getyourguide_location_id": null
  },
  {
    "name": "Coachella",
    "slug": "coachella",
    "category": "festival",
    "description": "Premier music and arts festival in the California desert featuring major headliners.",
    "image_url": null,
    "start_month": 4,
    "end_month": 4,
    "longitude": -116.2389,
    "latitude": 33.6803,
    "country": "United States",
    "region": "North America",
    "scale": 9,
    "crowd_level": "busy",
    "booking_destination_id": null,
    "getyourguide_location_id": null
  },
  {
    "name": "King's Day",
    "slug": "king-s-day",
    "category": "festival",
    "description": "Dutch national holiday with orange-clad crowds, street parties, and canal-boat celebrations.",
    "image_url": null,
    "start_month": 4,
    "end_month": 4,
    "longitude": 4.9041,
    "latitude": 52.3676,
    "country": "Netherlands",
    "region": "Europe",
    "scale": 8,
    "crowd_level": "busy",
    "booking_destination_id": null,
    "getyourguide_location_id": null
  },
  {
    "name": "Tinku",
    "slug": "tinku",
    "category": "festival",
    "description": "Andean ritual combat festival where communities engage in traditional fist fights as offerings.",
    "image_url": null,
    "start_month": 4,
    "end_month": 5,
    "longitude": -66.15,
    "latitude": -18.42,
    "country": "Bolivia",
    "region": "South America",
    "scale": 5,
    "crowd_level": "moderate",
    "booking_destination_id": null,
    "getyourguide_location_id": null
  },
  {
    "name": "Baisakhi",
    "slug": "baisakhi",
    "category": "festival",
    "description": "Sikh New Year and harvest festival celebrated with processions, bhangra, and langar feasts.",
    "image_url": null,
    "start_month": 4,
    "end_month": 4,
    "longitude": 74.8723,
    "latitude": 31.634,
    "country": "India",
    "region": "Asia",
    "scale": 7,
    "crowd_level": "busy",
    "booking_destination_id": null,
    "getyourguide_location_id": null
  },
  {
    "name": "Tulip Festival",
    "slug": "tulip-festival",
    "category": "festival",
    "description": "Keukenhof gardens showcase millions of tulips in spectacular floral displays.",
    "image_url": null,
    "start_month": 4,
    "end_month": 4,
    "longitude": 4.5461,
    "latitude": 52.2712,
    "country": "Netherlands",
    "region": "Europe",
    "scale": 7,
    "crowd_level": "busy",
    "booking_destination_id": null,
    "getyourguide_location_id": null
  },
  {
    "name": "Jazz Fest",
    "slug": "jazz-fest",
    "category": "festival",
    "description": "New Orleans Jazz and Heritage Festival celebrating local music, food, and culture.",
    "image_url": null,
    "start_month": 4,
    "end_month": 5,
    "longitude": -90.0805,
    "latitude": 29.9874,
    "country": "United States",
    "region": "North America",
    "scale": 8,
    "crowd_level": "busy",
    "booking_destination_id": null,
    "getyourguide_location_id": null
  },
  {
    "name": "Walpurgis Night",
    "slug": "walpurgis-night",
    "category": "festival",
    "description": "Spring celebration with bonfires and choral singing welcoming the arrival of spring.",
    "image_url": null,
    "start_month": 4,
    "end_month": 4,
    "longitude": 17.6389,
    "latitude": 59.8586,
    "country": "Sweden",
    "region": "Europe",
    "scale": 6,
    "crowd_level": "moderate",
    "booking_destination_id": null,
    "getyourguide_location_id": null
  },
  {
    "name": "Cinco de Mayo",
    "slug": "cinco-de-mayo",
    "category": "festival",
    "description": "Celebration of the Battle of Puebla with parades, music, folk dancing, and traditional foods.",
    "image_url": null,
    "start_month": 5,
    "end_month": 5,
    "longitude": -98.2063,
    "latitude": 19.0414,
    "country": "Mexico",
    "region": "North America",
    "scale": 7,
    "crowd_level": "busy",
    "booking_destination_id": null,
    "getyourguide_location_id": null
  },
  {
    "name": "Cannes Film Festival",
    "slug": "cannes-film-festival",
    "category": "festival",
    "description": "World's most prestigious film festival on the French Riviera awarding the Palme d'Or.",
    "image_url": null,
    "start_month": 5,
    "end_month": 5,
    "longitude": 7.0174,
    "latitude": 43.5528,
    "country": "France",
    "region": "Europe",
    "scale": 9,
    "crowd_level": "busy",
    "booking_destination_id": null,
    "getyourguide_location_id": null
  },
  {
    "name": "Vesak",
    "slug": "vesak",
    "category": "festival",
    "description": "Buddhist celebration of Buddha's birth, enlightenment, and death with lanterns and pandols.",
    "image_url": null,
    "start_month": 5,
    "end_month": 5,
    "longitude": 80.6337,
    "latitude": 7.2906,
    "country": "Sri Lanka",
    "region": "Asia",
    "scale": 7,
    "crowd_level": "moderate",
    "booking_destination_id": null,
    "getyourguide_location_id": null
  },
  {
    "name": "Feria de Abril",
    "slug": "feria-de-abril",
    "category": "festival",
    "description": "Seville spring fair with flamenco, horse parades, casetas tents, and sherry drinking.",
    "image_url": null,
    "start_month": 4,
    "end_month": 5,
    "longitude": -5.9823,
    "latitude": 37.3886,
    "country": "Spain",
    "region": "Europe",
    "scale": 8,
    "crowd_level": "busy",
    "booking_destination_id": null,
    "getyourguide_location_id": null
  },
  {
    "name": "Day of the Dead (Dia de los Muertos)",
    "slug": "day-of-the-dead-dia-de-los-muertos",
    "category": "festival",
    "description": "Mexican tradition honoring deceased loved ones with ofrendas, marigolds, and cemetery vigils.",
    "image_url": null,
    "start_month": 10,
    "end_month": 11,
    "longitude": -99.1332,
    "latitude": 19.4326,
    "country": "Mexico",
    "region": "North America",
    "scale": 9,
    "crowd_level": "busy",
    "booking_destination_id": null,
    "getyourguide_location_id": null
  },
  {
    "name": "Inti Raymi",
    "slug": "inti-raymi",
    "category": "festival",
    "description": "Incan Festival of the Sun recreated at Sacsayhuaman with elaborate ceremonies and costumes.",
    "image_url": null,
    "start_month": 6,
    "end_month": 6,
    "longitude": -71.9785,
    "latitude": -13.517,
    "country": "Peru",
    "region": "South America",
    "scale": 8,
    "crowd_level": "busy",
    "booking_destination_id": null,
    "getyourguide_location_id": null
  },
  {
    "name": "Chelsea Flower Show",
    "slug": "chelsea-flower-show",
    "category": "festival",
    "description": "World's most prestigious flower show featuring innovative garden designs at the Royal Hospital.",
    "image_url": null,
    "start_month": 5,
    "end_month": 5,
    "longitude": -0.1572,
    "latitude": 51.486,
    "country": "United Kingdom",
    "region": "Europe",
    "scale": 7,
    "crowd_level": "busy",
    "booking_destination_id": null,
    "getyourguide_location_id": null
  },
  {
    "name": "Burning Man",
    "slug": "burning-man",
    "category": "festival",
    "description": "Week-long community gathering in the Nevada desert culminating in the burning of a wooden effigy.",
    "image_url": null,
    "start_month": 8,
    "end_month": 9,
    "longitude": -119.2065,
    "latitude": 40.7864,
    "country": "United States",
    "region": "North America",
    "scale": 9,
    "crowd_level": "busy",
    "booking_destination_id": null,
    "getyourguide_location_id": null
  },
  {
    "name": "Festa de Sao Joao",
    "slug": "festa-de-sao-joao",
    "category": "festival",
    "description": "Porto's St. John festival with sardines, bonfires, plastic hammer battles, and lantern balloons.",
    "image_url": null,
    "start_month": 6,
    "end_month": 6,
    "longitude": -8.6109,
    "latitude": 41.1496,
    "country": "Portugal",
    "region": "Europe",
    "scale": 7,
    "crowd_level": "busy",
    "booking_destination_id": null,
    "getyourguide_location_id": null
  },
  {
    "name": "Glastonbury Festival",
    "slug": "glastonbury-festival",
    "category": "festival",
    "description": "Iconic music festival on Worthy Farm featuring hundreds of acts across multiple stages.",
    "image_url": null,
    "start_month": 6,
    "end_month": 6,
    "longitude": -2.5853,
    "latitude": 51.1595,
    "country": "United Kingdom",
    "region": "Europe",
    "scale": 9,
    "crowd_level": "busy",
    "booking_destination_id": null,
    "getyourguide_location_id": null
  },
  {
    "name": "Fete de la Musique",
    "slug": "fete-de-la-musique",
    "category": "festival",
    "description": "Nationwide music day with free concerts in every street, park, and square across France.",
    "image_url": null,
    "start_month": 6,
    "end_month": 6,
    "longitude": 2.3522,
    "latitude": 48.8566,
    "country": "France",
    "region": "Europe",
    "scale": 8,
    "crowd_level": "busy",
    "booking_destination_id": null,
    "getyourguide_location_id": null
  },
  {
    "name": "Midsommar",
    "slug": "midsommar",
    "category": "festival",
    "description": "Swedish midsummer celebration with maypole dancing, flower crowns, and herring feasts.",
    "image_url": null,
    "start_month": 6,
    "end_month": 6,
    "longitude": 11.9746,
    "latitude": 57.7089,
    "country": "Sweden",
    "region": "Europe",
    "scale": 8,
    "crowd_level": "moderate",
    "booking_destination_id": null,
    "getyourguide_location_id": null
  },
  {
    "name": "Dragon Boat Festival",
    "slug": "dragon-boat-festival",
    "category": "festival",
    "description": "Racing of ornate dragon boats on rivers with zongzi rice dumplings and riverside festivities.",
    "image_url": null,
    "start_month": 6,
    "end_month": 6,
    "longitude": 114.2793,
    "latitude": 30.5728,
    "country": "China",
    "region": "Asia",
    "scale": 8,
    "crowd_level": "busy",
    "booking_destination_id": null,
    "getyourguide_location_id": null
  },
  {
    "name": "Gion Matsuri",
    "slug": "gion-matsuri",
    "category": "festival",
    "description": "Kyoto's month-long festival with towering yamaboko floats parading through ancient streets.",
    "image_url": null,
    "start_month": 7,
    "end_month": 7,
    "longitude": 135.7785,
    "latitude": 35.0036,
    "country": "Japan",
    "region": "Asia",
    "scale": 9,
    "crowd_level": "busy",
    "booking_destination_id": null,
    "getyourguide_location_id": null
  },
  {
    "name": "White Nights Festival",
    "slug": "white-nights-festival",
    "category": "festival",
    "description": "St. Petersburg cultural festival during midnight sun with ballet, opera, and drawbridge spectacles.",
    "image_url": null,
    "start_month": 5,
    "end_month": 7,
    "longitude": 30.3351,
    "latitude": 59.9343,
    "country": "Russia",
    "region": "Europe",
    "scale": 8,
    "crowd_level": "busy",
    "booking_destination_id": null,
    "getyourguide_location_id": null
  },
  {
    "name": "Roskilde Festival",
    "slug": "roskilde-festival",
    "category": "festival",
    "description": "Northern Europe's largest music festival with eight stages and a strong community ethos.",
    "image_url": null,
    "start_month": 6,
    "end_month": 7,
    "longitude": 12.0803,
    "latitude": 55.6148,
    "country": "Denmark",
    "region": "Europe",
    "scale": 8,
    "crowd_level": "busy",
    "booking_destination_id": null,
    "getyourguide_location_id": null
  },
  {
    "name": "Eid al-Adha",
    "slug": "eid-al-adha",
    "category": "festival",
    "description": "Islamic feast of sacrifice during Hajj with communal prayers and charitable meat distribution.",
    "image_url": null,
    "start_month": 6,
    "end_month": 6,
    "longitude": 39.8262,
    "latitude": 21.4225,
    "country": "Saudi Arabia",
    "region": "Asia",
    "scale": 9,
    "crowd_level": "busy",
    "booking_destination_id": null,
    "getyourguide_location_id": null
  },
  {
    "name": "Bastille Day",
    "slug": "bastille-day",
    "category": "festival",
    "description": "French national day with military parades on the Champs-Elysees and Eiffel Tower fireworks.",
    "image_url": null,
    "start_month": 7,
    "end_month": 7,
    "longitude": 2.3522,
    "latitude": 48.8566,
    "country": "France",
    "region": "Europe",
    "scale": 8,
    "crowd_level": "busy",
    "booking_destination_id": null,
    "getyourguide_location_id": null
  },
  {
    "name": "Running of the Bulls",
    "slug": "running-of-the-bulls",
    "category": "festival",
    "description": "San Fermin festival in Pamplona with daily bull runs through narrow streets and celebrations.",
    "image_url": null,
    "start_month": 7,
    "end_month": 7,
    "longitude": -1.6458,
    "latitude": 42.812,
    "country": "Spain",
    "region": "Europe",
    "scale": 9,
    "crowd_level": "busy",
    "booking_destination_id": null,
    "getyourguide_location_id": null
  },
  {
    "name": "Tomorrowland",
    "slug": "tomorrowland",
    "category": "festival",
    "description": "World's largest electronic dance music festival with spectacular stage designs in Boom.",
    "image_url": null,
    "start_month": 7,
    "end_month": 7,
    "longitude": 4.3782,
    "latitude": 51.0901,
    "country": "Belgium",
    "region": "Europe",
    "scale": 9,
    "crowd_level": "busy",
    "booking_destination_id": null,
    "getyourguide_location_id": null
  },
  {
    "name": "Boryeong Mud Festival",
    "slug": "boryeong-mud-festival",
    "category": "festival",
    "description": "Beach festival featuring mud wrestling, mud slides, and mud baths on Daecheon Beach.",
    "image_url": null,
    "start_month": 7,
    "end_month": 7,
    "longitude": 126.6127,
    "latitude": 36.3504,
    "country": "South Korea",
    "region": "Asia",
    "scale": 7,
    "crowd_level": "busy",
    "booking_destination_id": null,
    "getyourguide_location_id": null
  },
  {
    "name": "Calgary Stampede",
    "slug": "calgary-stampede",
    "category": "festival",
    "description": "Ten-day rodeo and exhibition billed as The Greatest Outdoor Show on Earth.",
    "image_url": null,
    "start_month": 7,
    "end_month": 7,
    "longitude": -114.0527,
    "latitude": 51.038,
    "country": "Canada",
    "region": "North America",
    "scale": 8,
    "crowd_level": "busy",
    "booking_destination_id": null,
    "getyourguide_location_id": null
  },
  {
    "name": "Montreal Jazz Festival",
    "slug": "montreal-jazz-festival",
    "category": "festival",
    "description": "World's largest jazz festival with hundreds of concerts, many free, in downtown Montreal.",
    "image_url": null,
    "start_month": 6,
    "end_month": 7,
    "longitude": -73.5673,
    "latitude": 45.5017,
    "country": "Canada",
    "region": "North America",
    "scale": 8,
    "crowd_level": "busy",
    "booking_destination_id": null,
    "getyourguide_location_id": null
  },
  {
    "name": "Fuji Rock Festival",
    "slug": "fuji-rock-festival",
    "category": "festival",
    "description": "Japan's largest outdoor music festival set in the Naeba ski resort mountains.",
    "image_url": null,
    "start_month": 7,
    "end_month": 7,
    "longitude": 138.7909,
    "latitude": 36.9314,
    "country": "Japan",
    "region": "Asia",
    "scale": 8,
    "crowd_level": "busy",
    "booking_destination_id": null,
    "getyourguide_location_id": null
  },
  {
    "name": "Paleo Festival",
    "slug": "paleo-festival",
    "category": "festival",
    "description": "Major Swiss open-air music festival in Nyon featuring diverse international artists.",
    "image_url": null,
    "start_month": 7,
    "end_month": 7,
    "longitude": 6.2333,
    "latitude": 46.3833,
    "country": "Switzerland",
    "region": "Europe",
    "scale": 7,
    "crowd_level": "busy",
    "booking_destination_id": null,
    "getyourguide_location_id": null
  },
  {
    "name": "Tanabata",
    "slug": "tanabata",
    "category": "festival",
    "description": "Japanese star festival with colorful paper decorations and wishes written on tanzaku strips.",
    "image_url": null,
    "start_month": 7,
    "end_month": 8,
    "longitude": 140.8694,
    "latitude": 38.2682,
    "country": "Japan",
    "region": "Asia",
    "scale": 7,
    "crowd_level": "moderate",
    "booking_destination_id": null,
    "getyourguide_location_id": null
  },
  {
    "name": "Naadam",
    "slug": "naadam",
    "category": "festival",
    "description": "Mongolian games festival featuring the Three Manly Sports: wrestling, horse racing, and archery.",
    "image_url": null,
    "start_month": 7,
    "end_month": 7,
    "longitude": 106.9067,
    "latitude": 47.9212,
    "country": "Mongolia",
    "region": "Asia",
    "scale": 8,
    "crowd_level": "busy",
    "booking_destination_id": null,
    "getyourguide_location_id": null
  },
  {
    "name": "La Tomatina",
    "slug": "la-tomatina",
    "category": "festival",
    "description": "Massive tomato fight in Bunol where participants hurl overripe tomatoes at each other.",
    "image_url": null,
    "start_month": 8,
    "end_month": 8,
    "longitude": -0.7734,
    "latitude": 39.4912,
    "country": "Spain",
    "region": "Europe",
    "scale": 8,
    "crowd_level": "busy",
    "booking_destination_id": null,
    "getyourguide_location_id": null
  },
  {
    "name": "Edinburgh Festival Fringe",
    "slug": "edinburgh-festival-fringe",
    "category": "festival",
    "description": "World's largest arts festival with thousands of comedy, theater, and music performances.",
    "image_url": null,
    "start_month": 8,
    "end_month": 8,
    "longitude": -3.1883,
    "latitude": 55.9533,
    "country": "United Kingdom",
    "region": "Europe",
    "scale": 9,
    "crowd_level": "busy",
    "booking_destination_id": null,
    "getyourguide_location_id": null
  },
  {
    "name": "Notting Hill Carnival",
    "slug": "notting-hill-carnival",
    "category": "festival",
    "description": "Europe's biggest street party celebrating Caribbean culture with steel bands and mas costumes.",
    "image_url": null,
    "start_month": 8,
    "end_month": 8,
    "longitude": -0.205,
    "latitude": 51.5134,
    "country": "United Kingdom",
    "region": "Europe",
    "scale": 9,
    "crowd_level": "busy",
    "booking_destination_id": null,
    "getyourguide_location_id": null
  },
  {
    "name": "Sziget Festival",
    "slug": "sziget-festival",
    "category": "festival",
    "description": "Week-long island festival on the Danube with music, art, and theater on Obudai Island.",
    "image_url": null,
    "start_month": 8,
    "end_month": 8,
    "longitude": 19.0609,
    "latitude": 47.552,
    "country": "Hungary",
    "region": "Europe",
    "scale": 8,
    "crowd_level": "busy",
    "booking_destination_id": null,
    "getyourguide_location_id": null
  },
  {
    "name": "Obon",
    "slug": "obon",
    "category": "festival",
    "description": "Japanese Buddhist tradition honoring ancestors with bon odori dances and floating lanterns.",
    "image_url": null,
    "start_month": 8,
    "end_month": 8,
    "longitude": 135.5023,
    "latitude": 34.6937,
    "country": "Japan",
    "region": "Asia",
    "scale": 8,
    "crowd_level": "moderate",
    "booking_destination_id": null,
    "getyourguide_location_id": null
  },
  {
    "name": "Crop Over",
    "slug": "crop-over",
    "category": "festival",
    "description": "Barbadian harvest festival culminating in the Grand Kadooment Day parade with mas bands.",
    "image_url": null,
    "start_month": 7,
    "end_month": 8,
    "longitude": -59.5432,
    "latitude": 13.1939,
    "country": "Barbados",
    "region": "North America",
    "scale": 7,
    "crowd_level": "busy",
    "booking_destination_id": null,
    "getyourguide_location_id": null
  },
  {
    "name": "Metatron Festival",
    "slug": "metatron-festival",
    "category": "festival",
    "description": "Desert psytrance festival in the Negev with multiple stages and art installations.",
    "image_url": null,
    "start_month": 8,
    "end_month": 8,
    "longitude": 34.7915,
    "latitude": 31.253,
    "country": "Israel",
    "region": "Asia",
    "scale": 5,
    "crowd_level": "moderate",
    "booking_destination_id": null,
    "getyourguide_location_id": null
  },
  {
    "name": "La Guelaguetza",
    "slug": "la-guelaguetza",
    "category": "festival",
    "description": "Oaxacan indigenous dance festival showcasing regional traditions from eight cultural regions.",
    "image_url": null,
    "start_month": 7,
    "end_month": 7,
    "longitude": -96.7266,
    "latitude": 17.0732,
    "country": "Mexico",
    "region": "North America",
    "scale": 7,
    "crowd_level": "busy",
    "booking_destination_id": null,
    "getyourguide_location_id": null
  },
  {
    "name": "Oktoberfest",
    "slug": "oktoberfest",
    "category": "festival",
    "description": "World's largest beer festival in Munich with massive beer tents, traditional music, and Bavarian food.",
    "image_url": null,
    "start_month": 9,
    "end_month": 10,
    "longitude": 11.5497,
    "latitude": 48.1317,
    "country": "Germany",
    "region": "Europe",
    "scale": 10,
    "crowd_level": "busy",
    "booking_destination_id": null,
    "getyourguide_location_id": null
  },
  {
    "name": "La Merce",
    "slug": "la-merce",
    "category": "festival",
    "description": "Barcelona's biggest street festival with human towers, fire runs, and giant puppet parades.",
    "image_url": null,
    "start_month": 9,
    "end_month": 9,
    "longitude": 2.1734,
    "latitude": 41.3851,
    "country": "Spain",
    "region": "Europe",
    "scale": 8,
    "crowd_level": "busy",
    "booking_destination_id": null,
    "getyourguide_location_id": null
  },
  {
    "name": "Ganesh Chaturthi",
    "slug": "ganesh-chaturthi",
    "category": "festival",
    "description": "Ten-day Hindu festival honoring Ganesha with massive idol processions and immersion in the sea.",
    "image_url": null,
    "start_month": 8,
    "end_month": 9,
    "longitude": 72.8777,
    "latitude": 19.076,
    "country": "India",
    "region": "Asia",
    "scale": 9,
    "crowd_level": "busy",
    "booking_destination_id": null,
    "getyourguide_location_id": null
  },
  {
    "name": "Mid-Autumn Festival",
    "slug": "mid-autumn-festival",
    "category": "festival",
    "description": "Chinese Moon Festival with mooncakes, lantern displays, and family reunions under the full moon.",
    "image_url": null,
    "start_month": 9,
    "end_month": 9,
    "longitude": 121.4737,
    "latitude": 31.2304,
    "country": "China",
    "region": "Asia",
    "scale": 8,
    "crowd_level": "busy",
    "booking_destination_id": null,
    "getyourguide_location_id": null
  },
  {
    "name": "Chuseok",
    "slug": "chuseok",
    "category": "festival",
    "description": "Korean harvest festival with ancestor rituals, songpyeon rice cakes, and folk games.",
    "image_url": null,
    "start_month": 9,
    "end_month": 9,
    "longitude": 126.978,
    "latitude": 37.5665,
    "country": "South Korea",
    "region": "Asia",
    "scale": 8,
    "crowd_level": "busy",
    "booking_destination_id": null,
    "getyourguide_location_id": null
  },
  {
    "name": "Navratri",
    "slug": "navratri",
    "category": "festival",
    "description": "Nine nights of dance and devotion to the goddess Durga, famous for Garba dancing in Gujarat.",
    "image_url": null,
    "start_month": 9,
    "end_month": 10,
    "longitude": 72.5714,
    "latitude": 23.0225,
    "country": "India",
    "region": "Asia",
    "scale": 9,
    "crowd_level": "busy",
    "booking_destination_id": null,
    "getyourguide_location_id": null
  },
  {
    "name": "Fiestas Patrias",
    "slug": "fiestas-patrias",
    "category": "festival",
    "description": "Chilean independence celebrations with fondas, cueca dancing, empanadas, and chicha wine.",
    "image_url": null,
    "start_month": 9,
    "end_month": 9,
    "longitude": -70.6693,
    "latitude": -33.4489,
    "country": "Chile",
    "region": "South America",
    "scale": 7,
    "crowd_level": "busy",
    "booking_destination_id": null,
    "getyourguide_location_id": null
  },
  {
    "name": "Festa della Rificolona",
    "slug": "festa-della-rificolona",
    "category": "festival",
    "description": "Florentine paper lantern festival with children carrying illuminated lanterns through the streets.",
    "image_url": null,
    "start_month": 9,
    "end_month": 9,
    "longitude": 11.2558,
    "latitude": 43.7696,
    "country": "Italy",
    "region": "Europe",
    "scale": 5,
    "crowd_level": "moderate",
    "booking_destination_id": null,
    "getyourguide_location_id": null
  },
  {
    "name": "Diwali",
    "slug": "diwali",
    "category": "festival",
    "description": "Hindu festival of lights with millions of oil lamps, fireworks, rangoli art, and sweets.",
    "image_url": null,
    "start_month": 10,
    "end_month": 11,
    "longitude": 77.209,
    "latitude": 28.6139,
    "country": "India",
    "region": "Asia",
    "scale": 10,
    "crowd_level": "busy",
    "booking_destination_id": null,
    "getyourguide_location_id": null
  },
  {
    "name": "Dia de los Muertos",
    "slug": "dia-de-los-muertos",
    "category": "festival",
    "description": "Day of the Dead celebration with sugar skulls, marigold altars, and cemetery vigils.",
    "image_url": null,
    "start_month": 10,
    "end_month": 11,
    "longitude": -99.1614,
    "latitude": 19.3465,
    "country": "Mexico",
    "region": "North America",
    "scale": 9,
    "crowd_level": "busy",
    "booking_destination_id": null,
    "getyourguide_location_id": null
  },
  {
    "name": "Albuquerque International Balloon Fiesta",
    "slug": "albuquerque-international-balloon-fiesta",
    "category": "festival",
    "description": "World's largest hot air balloon festival with 500+ balloons in mass ascension.",
    "image_url": null,
    "start_month": 10,
    "end_month": 10,
    "longitude": -106.5956,
    "latitude": 35.1984,
    "country": "United States",
    "region": "North America",
    "scale": 8,
    "crowd_level": "busy",
    "booking_destination_id": null,
    "getyourguide_location_id": null
  },
  {
    "name": "Loi Krathong",
    "slug": "loi-krathong",
    "category": "festival",
    "description": "Thai festival of lights with krathong boats and sky lanterns released on waterways.",
    "image_url": null,
    "start_month": 11,
    "end_month": 11,
    "longitude": 98.9853,
    "latitude": 18.7883,
    "country": "Thailand",
    "region": "Asia",
    "scale": 8,
    "crowd_level": "busy",
    "booking_destination_id": null,
    "getyourguide_location_id": null
  },
  {
    "name": "Pushkar Camel Fair",
    "slug": "pushkar-camel-fair",
    "category": "festival",
    "description": "Rajasthan camel trading fair with races, competitions, and a vibrant cultural gathering.",
    "image_url": null,
    "start_month": 10,
    "end_month": 11,
    "longitude": 74.5511,
    "latitude": 26.4898,
    "country": "India",
    "region": "Asia",
    "scale": 7,
    "crowd_level": "busy",
    "booking_destination_id": null,
    "getyourguide_location_id": null
  },
  {
    "name": "Festa do Cirio",
    "slug": "festa-do-cirio",
    "category": "festival",
    "description": "Largest Catholic procession in Brazil with two million devotees in Belem honoring Our Lady of Nazareth.",
    "image_url": null,
    "start_month": 10,
    "end_month": 10,
    "longitude": -48.5024,
    "latitude": -1.4558,
    "country": "Brazil",
    "region": "South America",
    "scale": 8,
    "crowd_level": "busy",
    "booking_destination_id": null,
    "getyourguide_location_id": null
  },
  {
    "name": "Day of the Dead Mixquic",
    "slug": "day-of-the-dead-mixquic",
    "category": "festival",
    "description": "Traditional cemetery vigil in Mixquic with candle-lit graves and ofrendas.",
    "image_url": null,
    "start_month": 11,
    "end_month": 11,
    "longitude": -99.009,
    "latitude": 19.2508,
    "country": "Mexico",
    "region": "North America",
    "scale": 6,
    "crowd_level": "busy",
    "booking_destination_id": null,
    "getyourguide_location_id": null
  },
  {
    "name": "Thanksgiving",
    "slug": "thanksgiving",
    "category": "festival",
    "description": "American holiday with family feasts, Macy's parade in New York, and football traditions.",
    "image_url": null,
    "start_month": 11,
    "end_month": 11,
    "longitude": -74.006,
    "latitude": 40.7128,
    "country": "United States",
    "region": "North America",
    "scale": 8,
    "crowd_level": "moderate",
    "booking_destination_id": null,
    "getyourguide_location_id": null
  },
  {
    "name": "Guy Fawkes Night",
    "slug": "guy-fawkes-night",
    "category": "festival",
    "description": "Bonfire Night with fireworks and effigies commemorating the failed Gunpowder Plot of 1605.",
    "image_url": null,
    "start_month": 11,
    "end_month": 11,
    "longitude": -0.1278,
    "latitude": 51.5074,
    "country": "United Kingdom",
    "region": "Europe",
    "scale": 7,
    "crowd_level": "moderate",
    "booking_destination_id": null,
    "getyourguide_location_id": null
  },
  {
    "name": "Yi Peng Lantern Festival",
    "slug": "yi-peng-lantern-festival",
    "category": "festival",
    "description": "Chiang Mai sky lantern festival where thousands of floating lanterns illuminate the night sky.",
    "image_url": null,
    "start_month": 11,
    "end_month": 11,
    "longitude": 98.9853,
    "latitude": 18.7883,
    "country": "Thailand",
    "region": "Asia",
    "scale": 8,
    "crowd_level": "busy",
    "booking_destination_id": null,
    "getyourguide_location_id": null
  },
  {
    "name": "Pushkar Mela",
    "slug": "pushkar-mela",
    "category": "festival",
    "description": "Massive camel fair and cultural festival in the desert town of Pushkar.",
    "image_url": null,
    "start_month": 11,
    "end_month": 11,
    "longitude": 74.5511,
    "latitude": 26.4898,
    "country": "India",
    "region": "Asia",
    "scale": 7,
    "crowd_level": "busy",
    "booking_destination_id": null,
    "getyourguide_location_id": null
  },
  {
    "name": "Beaujolais Nouveau Day",
    "slug": "beaujolais-nouveau-day",
    "category": "festival",
    "description": "Annual release of the year's young Beaujolais wine celebrated with tastings across France.",
    "image_url": null,
    "start_month": 11,
    "end_month": 11,
    "longitude": 4.5913,
    "latitude": 46.1545,
    "country": "France",
    "region": "Europe",
    "scale": 6,
    "crowd_level": "moderate",
    "booking_destination_id": null,
    "getyourguide_location_id": null
  },
  {
    "name": "Fiesta de los Diablitos",
    "slug": "fiesta-de-los-diablitos",
    "category": "festival",
    "description": "Boruca indigenous festival with devil masks representing resistance against Spanish colonizers.",
    "image_url": null,
    "start_month": 12,
    "end_month": 12,
    "longitude": -83.4833,
    "latitude": 8.5833,
    "country": "Costa Rica",
    "region": "North America",
    "scale": 4,
    "crowd_level": "moderate",
    "booking_destination_id": null,
    "getyourguide_location_id": null
  },
  {
    "name": "Christmas Markets",
    "slug": "christmas-markets",
    "category": "festival",
    "description": "Nuremberg Christkindlesmarkt and traditional German markets with gluhwein and gingerbread.",
    "image_url": null,
    "start_month": 11,
    "end_month": 12,
    "longitude": 11.0767,
    "latitude": 49.4521,
    "country": "Germany",
    "region": "Europe",
    "scale": 8,
    "crowd_level": "busy",
    "booking_destination_id": null,
    "getyourguide_location_id": null
  },
  {
    "name": "Hogmanay",
    "slug": "hogmanay",
    "category": "festival",
    "description": "Edinburgh's legendary New Year celebration with torchlight processions and midnight fireworks.",
    "image_url": null,
    "start_month": 12,
    "end_month": 12,
    "longitude": -3.1883,
    "latitude": 55.9533,
    "country": "United Kingdom",
    "region": "Europe",
    "scale": 8,
    "crowd_level": "busy",
    "booking_destination_id": null,
    "getyourguide_location_id": null
  },
  {
    "name": "New Year's Eve Sydney",
    "slug": "new-year-s-eve-sydney",
    "category": "festival",
    "description": "Spectacular Harbour Bridge and Opera House fireworks welcoming the new year.",
    "image_url": null,
    "start_month": 12,
    "end_month": 12,
    "longitude": 151.2153,
    "latitude": -33.8568,
    "country": "Australia",
    "region": "Oceania",
    "scale": 9,
    "crowd_level": "busy",
    "booking_destination_id": null,
    "getyourguide_location_id": null
  },
  {
    "name": "Krampusnacht",
    "slug": "krampusnacht",
    "category": "festival",
    "description": "Alpine tradition with costumed Krampus demons roaming streets alongside Saint Nicholas.",
    "image_url": null,
    "start_month": 12,
    "end_month": 12,
    "longitude": 13.055,
    "latitude": 47.8095,
    "country": "Austria",
    "region": "Europe",
    "scale": 6,
    "crowd_level": "moderate",
    "booking_destination_id": null,
    "getyourguide_location_id": null
  },
  {
    "name": "Junkanoo Rush",
    "slug": "junkanoo-rush",
    "category": "festival",
    "description": "Boxing Day Junkanoo parade with elaborate costumes, goatskin drums, and competitive groups.",
    "image_url": null,
    "start_month": 12,
    "end_month": 12,
    "longitude": -77.3504,
    "latitude": 25.0443,
    "country": "Bahamas",
    "region": "North America",
    "scale": 7,
    "crowd_level": "busy",
    "booking_destination_id": null,
    "getyourguide_location_id": null
  },
  {
    "name": "Nine Mornings Festival",
    "slug": "nine-mornings-festival",
    "category": "festival",
    "description": "Nine pre-dawn mornings of activities including sea baths, cycling, and steel band music.",
    "image_url": null,
    "start_month": 12,
    "end_month": 12,
    "longitude": -61.2248,
    "latitude": 13.1587,
    "country": "Saint Vincent and the Grenadines",
    "region": "North America",
    "scale": 4,
    "crowd_level": "moderate",
    "booking_destination_id": null,
    "getyourguide_location_id": null
  },
  {
    "name": "Posadas",
    "slug": "posadas",
    "category": "festival",
    "description": "Nine-night Mexican Christmas tradition reenacting Mary and Joseph's search for shelter with pinatas.",
    "image_url": null,
    "start_month": 12,
    "end_month": 12,
    "longitude": -100.3899,
    "latitude": 20.5888,
    "country": "Mexico",
    "region": "North America",
    "scale": 7,
    "crowd_level": "moderate",
    "booking_destination_id": null,
    "getyourguide_location_id": null
  },
  {
    "name": "Festival of Lights Lyon",
    "slug": "festival-of-lights-lyon",
    "category": "festival",
    "description": "Four-night light installation festival transforming Lyon's buildings into luminous artworks.",
    "image_url": null,
    "start_month": 12,
    "end_month": 12,
    "longitude": 4.8357,
    "latitude": 45.764,
    "country": "France",
    "region": "Europe",
    "scale": 8,
    "crowd_level": "busy",
    "booking_destination_id": null,
    "getyourguide_location_id": null
  },
  {
    "name": "Whale Festival Hermanus",
    "slug": "whale-festival-hermanus",
    "category": "festival",
    "description": "Annual whale watching festival during southern right whale season with arts and eco-tours.",
    "image_url": null,
    "start_month": 9,
    "end_month": 10,
    "longitude": 19.2345,
    "latitude": -34.4186,
    "country": "South Africa",
    "region": "Africa",
    "scale": 6,
    "crowd_level": "moderate",
    "booking_destination_id": null,
    "getyourguide_location_id": null
  },
  {
    "name": "Songkran Chiang Mai",
    "slug": "songkran-chiang-mai",
    "category": "festival",
    "description": "Chiang Mai's Songkran is Thailand's most intense water fight with moat-side celebrations.",
    "image_url": null,
    "start_month": 4,
    "end_month": 4,
    "longitude": 98.9853,
    "latitude": 18.7883,
    "country": "Thailand",
    "region": "Asia",
    "scale": 8,
    "crowd_level": "busy",
    "booking_destination_id": null,
    "getyourguide_location_id": null
  },
  {
    "name": "Lantern Festival",
    "slug": "lantern-festival",
    "category": "festival",
    "description": "Concluding celebration of Chinese New Year with lantern riddles, lion dances, and tangyuan.",
    "image_url": null,
    "start_month": 2,
    "end_month": 2,
    "longitude": 108.9541,
    "latitude": 34.2658,
    "country": "China",
    "region": "Asia",
    "scale": 8,
    "crowd_level": "busy",
    "booking_destination_id": null,
    "getyourguide_location_id": null
  },
  {
    "name": "Qingming Festival",
    "slug": "qingming-festival",
    "category": "festival",
    "description": "Tomb Sweeping Day where families visit ancestral graves, offer food, and fly kites.",
    "image_url": null,
    "start_month": 4,
    "end_month": 4,
    "longitude": 120.1551,
    "latitude": 30.2741,
    "country": "China",
    "region": "Asia",
    "scale": 7,
    "crowd_level": "moderate",
    "booking_destination_id": null,
    "getyourguide_location_id": null
  },
  {
    "name": "Pahela Baishakh",
    "slug": "pahela-baishakh",
    "category": "festival",
    "description": "Bengali New Year with Mangal Shobhajatra processions and cultural performances in Dhaka.",
    "image_url": null,
    "start_month": 4,
    "end_month": 4,
    "longitude": 90.4125,
    "latitude": 23.8103,
    "country": "Bangladesh",
    "region": "Asia",
    "scale": 7,
    "crowd_level": "busy",
    "booking_destination_id": null,
    "getyourguide_location_id": null
  },
  {
    "name": "Naga Fireball Festival",
    "slug": "naga-fireball-festival",
    "category": "festival",
    "description": "Mysterious fireballs rise from the Mekong River during the end of Buddhist Lent.",
    "image_url": null,
    "start_month": 10,
    "end_month": 10,
    "longitude": 102.7876,
    "latitude": 17.4065,
    "country": "Thailand",
    "region": "Asia",
    "scale": 5,
    "crowd_level": "moderate",
    "booking_destination_id": null,
    "getyourguide_location_id": null
  },
  {
    "name": "Thaipusam Singapore",
    "slug": "thaipusam-singapore",
    "category": "festival",
    "description": "Hindu festival procession from Sri Srinivasa Perumal Temple to Thendayuthapani Temple.",
    "image_url": null,
    "start_month": 1,
    "end_month": 2,
    "longitude": 103.8198,
    "latitude": 1.3521,
    "country": "Singapore",
    "region": "Asia",
    "scale": 6,
    "crowd_level": "busy",
    "booking_destination_id": null,
    "getyourguide_location_id": null
  },
  {
    "name": "Lohri",
    "slug": "lohri",
    "category": "festival",
    "description": "Punjabi winter bonfire festival celebrating the harvest with dancing and roasted peanuts.",
    "image_url": null,
    "start_month": 1,
    "end_month": 1,
    "longitude": 76.7794,
    "latitude": 30.7333,
    "country": "India",
    "region": "Asia",
    "scale": 6,
    "crowd_level": "moderate",
    "booking_destination_id": null,
    "getyourguide_location_id": null
  },
  {
    "name": "Saga Dawa",
    "slug": "saga-dawa",
    "category": "festival",
    "description": "Sacred month in Tibetan Buddhism with pilgrimages around Mount Kailash and prostrations.",
    "image_url": null,
    "start_month": 5,
    "end_month": 6,
    "longitude": 91.1712,
    "latitude": 29.6525,
    "country": "China",
    "region": "Asia",
    "scale": 5,
    "crowd_level": "moderate",
    "booking_destination_id": null,
    "getyourguide_location_id": null
  },
  {
    "name": "Mask Dance Festival",
    "slug": "mask-dance-festival",
    "category": "festival",
    "description": "Paro Tshechu festival with masked cham dances depicting Buddhist legends and demons.",
    "image_url": null,
    "start_month": 3,
    "end_month": 4,
    "longitude": 89.6393,
    "latitude": 27.4728,
    "country": "Bhutan",
    "region": "Asia",
    "scale": 6,
    "crowd_level": "moderate",
    "booking_destination_id": null,
    "getyourguide_location_id": null
  },
  {
    "name": "Perahera",
    "slug": "perahera",
    "category": "festival",
    "description": "Kandy Esala Perahera with over 100 elephants, fire dancers, and the Sacred Tooth Relic procession.",
    "image_url": null,
    "start_month": 7,
    "end_month": 8,
    "longitude": 80.6337,
    "latitude": 7.2906,
    "country": "Sri Lanka",
    "region": "Asia",
    "scale": 8,
    "crowd_level": "busy",
    "booking_destination_id": null,
    "getyourguide_location_id": null
  },
  {
    "name": "Onam",
    "slug": "onam",
    "category": "festival",
    "description": "Kerala's harvest festival with snake boat races, pookalam flower carpets, and Onasadya feasts.",
    "image_url": null,
    "start_month": 8,
    "end_month": 9,
    "longitude": 76.2673,
    "latitude": 9.9312,
    "country": "India",
    "region": "Asia",
    "scale": 8,
    "crowd_level": "busy",
    "booking_destination_id": null,
    "getyourguide_location_id": null
  },
  {
    "name": "Durga Puja",
    "slug": "durga-puja",
    "category": "festival",
    "description": "Five-day worship of goddess Durga in Kolkata with artistic pandals and idol immersion.",
    "image_url": null,
    "start_month": 10,
    "end_month": 10,
    "longitude": 88.3639,
    "latitude": 22.5726,
    "country": "India",
    "region": "Asia",
    "scale": 9,
    "crowd_level": "busy",
    "booking_destination_id": null,
    "getyourguide_location_id": null
  },
  {
    "name": "Chhath Puja",
    "slug": "chhath-puja",
    "category": "festival",
    "description": "Bihar sun worship festival with devotees standing in water offering prayers to the setting sun.",
    "image_url": null,
    "start_month": 10,
    "end_month": 11,
    "longitude": 85.1376,
    "latitude": 25.5941,
    "country": "India",
    "region": "Asia",
    "scale": 7,
    "crowd_level": "busy",
    "booking_destination_id": null,
    "getyourguide_location_id": null
  },
  {
    "name": "Balinese Day of Silence Ogoh-ogoh Parade",
    "slug": "balinese-day-of-silence-ogoh-ogoh-parade",
    "category": "festival",
    "description": "Massive demon effigies paraded through Ubud streets before Nyepi Day of Silence.",
    "image_url": null,
    "start_month": 3,
    "end_month": 3,
    "longitude": 115.2167,
    "latitude": -8.65,
    "country": "Indonesia",
    "region": "Asia",
    "scale": 7,
    "crowd_level": "busy",
    "booking_destination_id": null,
    "getyourguide_location_id": null
  },
  {
    "name": "Phi Ta Khon",
    "slug": "phi-ta-khon",
    "category": "festival",
    "description": "Ghost festival in Dan Sai with colorful ghost masks, dancing, and rocket launching.",
    "image_url": null,
    "start_month": 6,
    "end_month": 6,
    "longitude": 101.4833,
    "latitude": 17.2544,
    "country": "Thailand",
    "region": "Asia",
    "scale": 5,
    "crowd_level": "moderate",
    "booking_destination_id": null,
    "getyourguide_location_id": null
  },
  {
    "name": "Hemis Festival",
    "slug": "hemis-festival",
    "category": "festival",
    "description": "Ladakh monastery festival with masked cham dances celebrating Guru Padmasambhava.",
    "image_url": null,
    "start_month": 6,
    "end_month": 6,
    "longitude": 77.3846,
    "latitude": 33.9174,
    "country": "India",
    "region": "Asia",
    "scale": 5,
    "crowd_level": "moderate",
    "booking_destination_id": null,
    "getyourguide_location_id": null
  },
  {
    "name": "Bon Om Touk",
    "slug": "bon-om-touk",
    "category": "festival",
    "description": "Cambodian water festival with longboat races and the reversal of the Tonle Sap River.",
    "image_url": null,
    "start_month": 11,
    "end_month": 11,
    "longitude": 104.9282,
    "latitude": 11.5564,
    "country": "Cambodia",
    "region": "Asia",
    "scale": 7,
    "crowd_level": "busy",
    "booking_destination_id": null,
    "getyourguide_location_id": null
  },
  {
    "name": "Thingyan",
    "slug": "thingyan",
    "category": "festival",
    "description": "Burmese New Year water festival with street-side water throwing and religious ceremonies.",
    "image_url": null,
    "start_month": 4,
    "end_month": 4,
    "longitude": 96.1951,
    "latitude": 16.8661,
    "country": "Myanmar",
    "region": "Asia",
    "scale": 7,
    "crowd_level": "busy",
    "booking_destination_id": null,
    "getyourguide_location_id": null
  },
  {
    "name": "Tet Nguyen Dan",
    "slug": "tet-nguyen-dan",
    "category": "festival",
    "description": "Vietnamese lunar new year with kumquat trees, banh chung, and dragon dance performances.",
    "image_url": null,
    "start_month": 1,
    "end_month": 2,
    "longitude": 105.8342,
    "latitude": 21.0278,
    "country": "Vietnam",
    "region": "Asia",
    "scale": 9,
    "crowd_level": "busy",
    "booking_destination_id": null,
    "getyourguide_location_id": null
  },
  {
    "name": "Cheung Chau Bun Festival",
    "slug": "cheung-chau-bun-festival",
    "category": "festival",
    "description": "Taoist festival on Cheung Chau Island with bun towers, floating children, and lion dances.",
    "image_url": null,
    "start_month": 5,
    "end_month": 5,
    "longitude": 114.0288,
    "latitude": 22.2094,
    "country": "Hong Kong",
    "region": "Asia",
    "scale": 6,
    "crowd_level": "busy",
    "booking_destination_id": null,
    "getyourguide_location_id": null
  },
  {
    "name": "San Juan",
    "slug": "san-juan",
    "category": "festival",
    "description": "Midsummer beach bonfires across Spain with jumping over flames for good luck.",
    "image_url": null,
    "start_month": 6,
    "end_month": 6,
    "longitude": 2.159,
    "latitude": 41.3888,
    "country": "Spain",
    "region": "Europe",
    "scale": 7,
    "crowd_level": "busy",
    "booking_destination_id": null,
    "getyourguide_location_id": null
  },
  {
    "name": "Pamplona Running of the Bulls Opening",
    "slug": "pamplona-running-of-the-bulls-opening",
    "category": "festival",
    "description": "El Chupinazo rocket launch opening San Fermin with champagne-soaked celebrations.",
    "image_url": null,
    "start_month": 7,
    "end_month": 7,
    "longitude": -1.6458,
    "latitude": 42.8125,
    "country": "Spain",
    "region": "Europe",
    "scale": 8,
    "crowd_level": "busy",
    "booking_destination_id": null,
    "getyourguide_location_id": null
  },
  {
    "name": "Palio di Siena",
    "slug": "palio-di-siena",
    "category": "festival",
    "description": "Medieval bareback horse race in Siena's Piazza del Campo between city contrade.",
    "image_url": null,
    "start_month": 7,
    "end_month": 8,
    "longitude": 11.3308,
    "latitude": 43.3188,
    "country": "Italy",
    "region": "Europe",
    "scale": 8,
    "crowd_level": "busy",
    "booking_destination_id": null,
    "getyourguide_location_id": null
  },
  {
    "name": "Salzburg Festival",
    "slug": "salzburg-festival",
    "category": "festival",
    "description": "Prestigious classical music and drama festival founded in 1920 in Mozart's birthplace.",
    "image_url": null,
    "start_month": 7,
    "end_month": 8,
    "longitude": 13.055,
    "latitude": 47.8095,
    "country": "Austria",
    "region": "Europe",
    "scale": 8,
    "crowd_level": "busy",
    "booking_destination_id": null,
    "getyourguide_location_id": null
  },
  {
    "name": "Edinburgh Military Tattoo",
    "slug": "edinburgh-military-tattoo",
    "category": "festival",
    "description": "Military music and ceremony on Edinburgh Castle esplanade with pipe bands and fireworks.",
    "image_url": null,
    "start_month": 8,
    "end_month": 8,
    "longitude": -3.1999,
    "latitude": 55.9486,
    "country": "United Kingdom",
    "region": "Europe",
    "scale": 8,
    "crowd_level": "busy",
    "booking_destination_id": null,
    "getyourguide_location_id": null
  },
  {
    "name": "Feria de Malaga",
    "slug": "feria-de-malaga",
    "category": "festival",
    "description": "Malaga's grand summer fair with flamenco, horse parades, and casetas on the fairground.",
    "image_url": null,
    "start_month": 8,
    "end_month": 8,
    "longitude": -4.4214,
    "latitude": 36.7213,
    "country": "Spain",
    "region": "Europe",
    "scale": 7,
    "crowd_level": "busy",
    "booking_destination_id": null,
    "getyourguide_location_id": null
  },
  {
    "name": "Sanremo Music Festival",
    "slug": "sanremo-music-festival",
    "category": "festival",
    "description": "Italy's premier song contest that has launched numerous international music careers.",
    "image_url": null,
    "start_month": 2,
    "end_month": 2,
    "longitude": 7.7748,
    "latitude": 43.8159,
    "country": "Italy",
    "region": "Europe",
    "scale": 7,
    "crowd_level": "moderate",
    "booking_destination_id": null,
    "getyourguide_location_id": null
  },
  {
    "name": "Carnevale di Viareggio",
    "slug": "carnevale-di-viareggio",
    "category": "festival",
    "description": "Political satire carnival with giant papier-mache floats parading along the seaside.",
    "image_url": null,
    "start_month": 2,
    "end_month": 3,
    "longitude": 10.2512,
    "latitude": 43.8677,
    "country": "Italy",
    "region": "Europe",
    "scale": 7,
    "crowd_level": "busy",
    "booking_destination_id": null,
    "getyourguide_location_id": null
  },
  {
    "name": "Saint Nicholas Day",
    "slug": "saint-nicholas-day",
    "category": "festival",
    "description": "Sinterklaas arrival by steamboat with Zwarte Pieten distributing gifts and pepernoten.",
    "image_url": null,
    "start_month": 12,
    "end_month": 12,
    "longitude": 4.9041,
    "latitude": 52.3676,
    "country": "Netherlands",
    "region": "Europe",
    "scale": 6,
    "crowd_level": "moderate",
    "booking_destination_id": null,
    "getyourguide_location_id": null
  },
  {
    "name": "Fete des Lumieres",
    "slug": "fete-des-lumieres",
    "category": "festival",
    "description": "Lyon's Festival of Lights with artistic illuminations transforming the city's landmarks.",
    "image_url": null,
    "start_month": 12,
    "end_month": 12,
    "longitude": 4.8357,
    "latitude": 45.764,
    "country": "France",
    "region": "Europe",
    "scale": 8,
    "crowd_level": "busy",
    "booking_destination_id": null,
    "getyourguide_location_id": null
  },
  {
    "name": "Fiesta de San Isidro",
    "slug": "fiesta-de-san-isidro",
    "category": "festival",
    "description": "Madrid's patron saint festival with bullfights, chotis dancing, and rosquillas pastries.",
    "image_url": null,
    "start_month": 5,
    "end_month": 5,
    "longitude": -3.7038,
    "latitude": 40.4168,
    "country": "Spain",
    "region": "Europe",
    "scale": 7,
    "crowd_level": "busy",
    "booking_destination_id": null,
    "getyourguide_location_id": null
  },
  {
    "name": "Nice Carnival",
    "slug": "nice-carnival",
    "category": "festival",
    "description": "Mediterranean carnival with corso of giant floats and bataille de fleurs flower battles.",
    "image_url": null,
    "start_month": 2,
    "end_month": 2,
    "longitude": 7.262,
    "latitude": 43.7102,
    "country": "France",
    "region": "Europe",
    "scale": 7,
    "crowd_level": "busy",
    "booking_destination_id": null,
    "getyourguide_location_id": null
  },
  {
    "name": "Exit Festival",
    "slug": "exit-festival",
    "category": "festival",
    "description": "Award-winning music festival set in the Petrovaradin Fortress in Novi Sad.",
    "image_url": null,
    "start_month": 7,
    "end_month": 7,
    "longitude": 19.8614,
    "latitude": 45.2517,
    "country": "Serbia",
    "region": "Europe",
    "scale": 7,
    "crowd_level": "busy",
    "booking_destination_id": null,
    "getyourguide_location_id": null
  },
  {
    "name": "Montreux Jazz Festival",
    "slug": "montreux-jazz-festival",
    "category": "festival",
    "description": "World-renowned jazz festival on Lake Geneva featuring jazz, rock, and pop artists.",
    "image_url": null,
    "start_month": 7,
    "end_month": 7,
    "longitude": 6.9107,
    "latitude": 46.4312,
    "country": "Switzerland",
    "region": "Europe",
    "scale": 8,
    "crowd_level": "busy",
    "booking_destination_id": null,
    "getyourguide_location_id": null
  },
  {
    "name": "Ohrid Summer Festival",
    "slug": "ohrid-summer-festival",
    "category": "festival",
    "description": "Classical music and theater festival on the shores of ancient Lake Ohrid.",
    "image_url": null,
    "start_month": 7,
    "end_month": 8,
    "longitude": 20.8016,
    "latitude": 41.117,
    "country": "North Macedonia",
    "region": "Europe",
    "scale": 5,
    "crowd_level": "moderate",
    "booking_destination_id": null,
    "getyourguide_location_id": null
  },
  {
    "name": "Galway International Arts Festival",
    "slug": "galway-international-arts-festival",
    "category": "festival",
    "description": "Two-week arts festival with theater, music, visual arts, and comedy in Ireland's west.",
    "image_url": null,
    "start_month": 7,
    "end_month": 7,
    "longitude": -9.0568,
    "latitude": 53.2707,
    "country": "Ireland",
    "region": "Europe",
    "scale": 6,
    "crowd_level": "moderate",
    "booking_destination_id": null,
    "getyourguide_location_id": null
  },
  {
    "name": "Primavera Sound",
    "slug": "primavera-sound",
    "category": "festival",
    "description": "Barcelona's premier indie and alternative music festival at Parc del Forum.",
    "image_url": null,
    "start_month": 6,
    "end_month": 6,
    "longitude": 2.199,
    "latitude": 41.39,
    "country": "Spain",
    "region": "Europe",
    "scale": 8,
    "crowd_level": "busy",
    "booking_destination_id": null,
    "getyourguide_location_id": null
  },
  {
    "name": "Sonar Festival",
    "slug": "sonar-festival",
    "category": "festival",
    "description": "Barcelona electronic music and multimedia art festival combining day and night programs.",
    "image_url": null,
    "start_month": 6,
    "end_month": 6,
    "longitude": 2.149,
    "latitude": 41.3757,
    "country": "Spain",
    "region": "Europe",
    "scale": 8,
    "crowd_level": "busy",
    "booking_destination_id": null,
    "getyourguide_location_id": null
  },
  {
    "name": "St. Vitus Festival",
    "slug": "st-vitus-festival",
    "category": "festival",
    "description": "Brno folk festival with wine tasting, traditional music, and maypole celebrations.",
    "image_url": null,
    "start_month": 6,
    "end_month": 6,
    "longitude": 16.5993,
    "latitude": 49.2111,
    "country": "Czech Republic",
    "region": "Europe",
    "scale": 5,
    "crowd_level": "moderate",
    "booking_destination_id": null,
    "getyourguide_location_id": null
  },
  {
    "name": "Dubrovnik Summer Festival",
    "slug": "dubrovnik-summer-festival",
    "category": "festival",
    "description": "Open-air theater, music, and dance in the historic walls of Dubrovnik.",
    "image_url": null,
    "start_month": 7,
    "end_month": 8,
    "longitude": 18.0944,
    "latitude": 42.6507,
    "country": "Croatia",
    "region": "Europe",
    "scale": 7,
    "crowd_level": "busy",
    "booking_destination_id": null,
    "getyourguide_location_id": null
  },
  {
    "name": "Bayreuth Festival",
    "slug": "bayreuth-festival",
    "category": "festival",
    "description": "Annual Wagner opera festival at the specially designed Bayreuth Festspielhaus.",
    "image_url": null,
    "start_month": 7,
    "end_month": 8,
    "longitude": 11.5695,
    "latitude": 49.9427,
    "country": "Germany",
    "region": "Europe",
    "scale": 7,
    "crowd_level": "moderate",
    "booking_destination_id": null,
    "getyourguide_location_id": null
  },
  {
    "name": "Aix-en-Provence Festival",
    "slug": "aix-en-provence-festival",
    "category": "festival",
    "description": "Prestigious opera and classical music festival in the elegant Provencal town.",
    "image_url": null,
    "start_month": 7,
    "end_month": 7,
    "longitude": 5.4474,
    "latitude": 43.5297,
    "country": "France",
    "region": "Europe",
    "scale": 7,
    "crowd_level": "moderate",
    "booking_destination_id": null,
    "getyourguide_location_id": null
  },
  {
    "name": "Budapest Wine Festival",
    "slug": "budapest-wine-festival",
    "category": "festival",
    "description": "Wine tasting festival in Buda Castle with over 200 Hungarian winemakers.",
    "image_url": null,
    "start_month": 9,
    "end_month": 9,
    "longitude": 19.0402,
    "latitude": 47.4979,
    "country": "Hungary",
    "region": "Europe",
    "scale": 6,
    "crowd_level": "moderate",
    "booking_destination_id": null,
    "getyourguide_location_id": null
  },
  {
    "name": "Munich Starkbierzeit",
    "slug": "munich-starkbierzeit",
    "category": "festival",
    "description": "Munich's strong beer season with special doppelbock brewing and beer hall celebrations.",
    "image_url": null,
    "start_month": 3,
    "end_month": 4,
    "longitude": 11.582,
    "latitude": 48.1351,
    "country": "Germany",
    "region": "Europe",
    "scale": 6,
    "crowd_level": "moderate",
    "booking_destination_id": null,
    "getyourguide_location_id": null
  },
  {
    "name": "Vienna Opera Ball",
    "slug": "vienna-opera-ball",
    "category": "festival",
    "description": "Grand annual ball at the Vienna State Opera with waltzes and evening gowns.",
    "image_url": null,
    "start_month": 2,
    "end_month": 2,
    "longitude": 16.3689,
    "latitude": 48.2029,
    "country": "Austria",
    "region": "Europe",
    "scale": 8,
    "crowd_level": "busy",
    "booking_destination_id": null,
    "getyourguide_location_id": null
  },
  {
    "name": "Amsterdam Light Festival",
    "slug": "amsterdam-light-festival",
    "category": "festival",
    "description": "Light art installations along Amsterdam's canals during the darkest months.",
    "image_url": null,
    "start_month": 12,
    "end_month": 1,
    "longitude": 4.9041,
    "latitude": 52.3676,
    "country": "Netherlands",
    "region": "Europe",
    "scale": 7,
    "crowd_level": "moderate",
    "booking_destination_id": null,
    "getyourguide_location_id": null
  },
  {
    "name": "Rijeka Carnival",
    "slug": "rijeka-carnival",
    "category": "festival",
    "description": "Croatia's largest carnival with international parade and traditional zvoncari bell ringers.",
    "image_url": null,
    "start_month": 2,
    "end_month": 2,
    "longitude": 14.4422,
    "latitude": 45.3271,
    "country": "Croatia",
    "region": "Europe",
    "scale": 6,
    "crowd_level": "busy",
    "booking_destination_id": null,
    "getyourguide_location_id": null
  },
  {
    "name": "Bergen International Festival",
    "slug": "bergen-international-festival",
    "category": "festival",
    "description": "Norway's oldest and largest arts festival with music, dance, theater, and visual arts.",
    "image_url": null,
    "start_month": 5,
    "end_month": 6,
    "longitude": 5.3221,
    "latitude": 60.3913,
    "country": "Norway",
    "region": "Europe",
    "scale": 6,
    "crowd_level": "moderate",
    "booking_destination_id": null,
    "getyourguide_location_id": null
  },
  {
    "name": "Helsinki Festival",
    "slug": "helsinki-festival",
    "category": "festival",
    "description": "Finland's largest arts festival with Night of the Arts lighting up the city.",
    "image_url": null,
    "start_month": 8,
    "end_month": 9,
    "longitude": 24.9384,
    "latitude": 60.1699,
    "country": "Finland",
    "region": "Europe",
    "scale": 6,
    "crowd_level": "moderate",
    "booking_destination_id": null,
    "getyourguide_location_id": null
  },
  {
    "name": "Reykjavik Culture Night",
    "slug": "reykjavik-culture-night",
    "category": "festival",
    "description": "Reykjavik opens its cultural institutions with concerts, shows, and fireworks.",
    "image_url": null,
    "start_month": 8,
    "end_month": 8,
    "longitude": -21.9426,
    "latitude": 64.1466,
    "country": "Iceland",
    "region": "Europe",
    "scale": 5,
    "crowd_level": "moderate",
    "booking_destination_id": null,
    "getyourguide_location_id": null
  },
  {
    "name": "Festival in the Desert",
    "slug": "festival-in-the-desert",
    "category": "festival",
    "description": "Tuareg music festival in the Sahara featuring desert blues and traditional nomadic culture.",
    "image_url": null,
    "start_month": 1,
    "end_month": 1,
    "longitude": -3.0026,
    "latitude": 16.7666,
    "country": "Mali",
    "region": "Africa",
    "scale": 6,
    "crowd_level": "moderate",
    "booking_destination_id": null,
    "getyourguide_location_id": null
  },
  {
    "name": "Fez Festival of World Sacred Music",
    "slug": "fez-festival-of-world-sacred-music",
    "category": "festival",
    "description": "Sacred music from diverse traditions performed in the medieval medina of Fez.",
    "image_url": null,
    "start_month": 6,
    "end_month": 6,
    "longitude": -5.0003,
    "latitude": 34.0331,
    "country": "Morocco",
    "region": "Africa",
    "scale": 6,
    "crowd_level": "moderate",
    "booking_destination_id": null,
    "getyourguide_location_id": null
  },
  {
    "name": "Lake of Stars Festival",
    "slug": "lake-of-stars-festival",
    "category": "festival",
    "description": "Lakeside music festival on Lake Malawi combining African and international artists.",
    "image_url": null,
    "start_month": 9,
    "end_month": 9,
    "longitude": 34.8888,
    "latitude": -13.9669,
    "country": "Malawi",
    "region": "Africa",
    "scale": 5,
    "crowd_level": "moderate",
    "booking_destination_id": null,
    "getyourguide_location_id": null
  },
  {
    "name": "Timkat Addis Ababa",
    "slug": "timkat-addis-ababa",
    "category": "festival",
    "description": "Ethiopian Epiphany celebrated with ornate processions of tabots and ritual baptism.",
    "image_url": null,
    "start_month": 1,
    "end_month": 1,
    "longitude": 38.7636,
    "latitude": 9.0054,
    "country": "Ethiopia",
    "region": "Africa",
    "scale": 7,
    "crowd_level": "busy",
    "booking_destination_id": null,
    "getyourguide_location_id": null
  },
  {
    "name": "Gnaoua World Music Festival",
    "slug": "gnaoua-world-music-festival",
    "category": "festival",
    "description": "Essaouira music festival celebrating Gnaoua spiritual music with international fusions.",
    "image_url": null,
    "start_month": 6,
    "end_month": 6,
    "longitude": -9.7595,
    "latitude": 31.5085,
    "country": "Morocco",
    "region": "Africa",
    "scale": 7,
    "crowd_level": "busy",
    "booking_destination_id": null,
    "getyourguide_location_id": null
  },
  {
    "name": "Cape Town Jazz Festival",
    "slug": "cape-town-jazz-festival",
    "category": "festival",
    "description": "Africa's grandest jazz gathering with five stages and 40 artists over two nights.",
    "image_url": null,
    "start_month": 3,
    "end_month": 3,
    "longitude": 18.4241,
    "latitude": -33.9249,
    "country": "South Africa",
    "region": "Africa",
    "scale": 7,
    "crowd_level": "busy",
    "booking_destination_id": null,
    "getyourguide_location_id": null
  },
  {
    "name": "Sauti za Busara",
    "slug": "sauti-za-busara",
    "category": "festival",
    "description": "Swahili music festival in Zanzibar's Stone Town celebrating East African sounds.",
    "image_url": null,
    "start_month": 2,
    "end_month": 2,
    "longitude": 39.1921,
    "latitude": -6.1622,
    "country": "Tanzania",
    "region": "Africa",
    "scale": 5,
    "crowd_level": "moderate",
    "booking_destination_id": null,
    "getyourguide_location_id": null
  },
  {
    "name": "FESPACO",
    "slug": "fespaco",
    "category": "festival",
    "description": "Pan-African film and television festival of Ouagadougou, the largest film event in Africa.",
    "image_url": null,
    "start_month": 2,
    "end_month": 3,
    "longitude": -1.5197,
    "latitude": 12.3714,
    "country": "Burkina Faso",
    "region": "Africa",
    "scale": 6,
    "crowd_level": "moderate",
    "booking_destination_id": null,
    "getyourguide_location_id": null
  },
  {
    "name": "Durbar Festival",
    "slug": "durbar-festival",
    "category": "festival",
    "description": "Kano horseback parade with elaborate regalia celebrating the end of Ramadan with the Emir.",
    "image_url": null,
    "start_month": 3,
    "end_month": 3,
    "longitude": 8.592,
    "latitude": 12.0022,
    "country": "Nigeria",
    "region": "Africa",
    "scale": 7,
    "crowd_level": "busy",
    "booking_destination_id": null,
    "getyourguide_location_id": null
  },
  {
    "name": "Gerewol",
    "slug": "gerewol",
    "category": "festival",
    "description": "Wodaabe male beauty contest where young men wear elaborate makeup to attract brides.",
    "image_url": null,
    "start_month": 9,
    "end_month": 9,
    "longitude": 7.1195,
    "latitude": 13.5137,
    "country": "Niger",
    "region": "Africa",
    "scale": 5,
    "crowd_level": "quiet",
    "booking_destination_id": null,
    "getyourguide_location_id": null
  },
  {
    "name": "Umhlanga Reed Dance",
    "slug": "umhlanga-reed-dance",
    "category": "festival",
    "description": "Annual Swazi ceremony where thousands of maidens present reeds to the queen mother.",
    "image_url": null,
    "start_month": 8,
    "end_month": 9,
    "longitude": 31.1367,
    "latitude": -26.3054,
    "country": "Eswatini",
    "region": "Africa",
    "scale": 6,
    "crowd_level": "moderate",
    "booking_destination_id": null,
    "getyourguide_location_id": null
  },
  {
    "name": "Voodoo Festival",
    "slug": "voodoo-festival",
    "category": "festival",
    "description": "Ouidah voodoo celebrations with traditional ceremonies honoring spirits and ancestors.",
    "image_url": null,
    "start_month": 1,
    "end_month": 1,
    "longitude": 2.3912,
    "latitude": 6.3703,
    "country": "Benin",
    "region": "Africa",
    "scale": 6,
    "crowd_level": "moderate",
    "booking_destination_id": null,
    "getyourguide_location_id": null
  },
  {
    "name": "Festival au Desert Timbuktu",
    "slug": "festival-au-desert-timbuktu",
    "category": "festival",
    "description": "Desert gathering near Timbuktu with Tuareg music under the stars.",
    "image_url": null,
    "start_month": 1,
    "end_month": 1,
    "longitude": -3.0026,
    "latitude": 16.7666,
    "country": "Mali",
    "region": "Africa",
    "scale": 5,
    "crowd_level": "quiet",
    "booking_destination_id": null,
    "getyourguide_location_id": null
  },
  {
    "name": "Bushfire Festival",
    "slug": "bushfire-festival",
    "category": "festival",
    "description": "Three-day arts festival in the Ezulwini Valley with music, poetry, and theater.",
    "image_url": null,
    "start_month": 5,
    "end_month": 5,
    "longitude": 31.1367,
    "latitude": -26.3054,
    "country": "Eswatini",
    "region": "Africa",
    "scale": 5,
    "crowd_level": "moderate",
    "booking_destination_id": null,
    "getyourguide_location_id": null
  },
  {
    "name": "AfrikaBurn",
    "slug": "afrikaburn",
    "category": "festival",
    "description": "Regional Burning Man event in the Tankwa Karoo desert with art installations and community.",
    "image_url": null,
    "start_month": 4,
    "end_month": 5,
    "longitude": 19.75,
    "latitude": -32.3,
    "country": "South Africa",
    "region": "Africa",
    "scale": 6,
    "crowd_level": "moderate",
    "booking_destination_id": null,
    "getyourguide_location_id": null
  },
  {
    "name": "Carnival of Salvador",
    "slug": "carnival-of-salvador",
    "category": "festival",
    "description": "Salvador's carnival with electric trios driving through millions of dancers in the streets.",
    "image_url": null,
    "start_month": 2,
    "end_month": 2,
    "longitude": -38.5124,
    "latitude": -12.9714,
    "country": "Brazil",
    "region": "South America",
    "scale": 9,
    "crowd_level": "busy",
    "booking_destination_id": null,
    "getyourguide_location_id": null
  },
  {
    "name": "Inti Raymi Cusco",
    "slug": "inti-raymi-cusco",
    "category": "festival",
    "description": "Ancient Incan sun festival reenactment at Sacsayhuaman fortress with elaborate ceremonies.",
    "image_url": null,
    "start_month": 6,
    "end_month": 6,
    "longitude": -71.9785,
    "latitude": -13.517,
    "country": "Peru",
    "region": "South America",
    "scale": 8,
    "crowd_level": "busy",
    "booking_destination_id": null,
    "getyourguide_location_id": null
  },
  {
    "name": "Fiesta de la Vendimia",
    "slug": "fiesta-de-la-vendimia",
    "category": "festival",
    "description": "Mendoza grape harvest festival with wine tasting, parades, and the crowning of the harvest queen.",
    "image_url": null,
    "start_month": 3,
    "end_month": 3,
    "longitude": -68.8458,
    "latitude": -32.8895,
    "country": "Argentina",
    "region": "South America",
    "scale": 7,
    "crowd_level": "busy",
    "booking_destination_id": null,
    "getyourguide_location_id": null
  },
  {
    "name": "Rock in Rio",
    "slug": "rock-in-rio",
    "category": "festival",
    "description": "Massive music festival in Rio de Janeiro attracting top global headliners.",
    "image_url": null,
    "start_month": 9,
    "end_month": 10,
    "longitude": -43.403,
    "latitude": -22.976,
    "country": "Brazil",
    "region": "South America",
    "scale": 9,
    "crowd_level": "busy",
    "booking_destination_id": null,
    "getyourguide_location_id": null
  },
  {
    "name": "Festival de Vina del Mar",
    "slug": "festival-de-vina-del-mar",
    "category": "festival",
    "description": "South America's largest and most important song festival at the Quinta Vergara amphitheater.",
    "image_url": null,
    "start_month": 2,
    "end_month": 2,
    "longitude": -71.55,
    "latitude": -33.0153,
    "country": "Chile",
    "region": "South America",
    "scale": 8,
    "crowd_level": "busy",
    "booking_destination_id": null,
    "getyourguide_location_id": null
  },
  {
    "name": "Fiesta de la Candelaria",
    "slug": "fiesta-de-la-candelaria",
    "category": "festival",
    "description": "Puno's spectacular folk dance festival honoring the Virgin of Candelaria with costumed dancers.",
    "image_url": null,
    "start_month": 2,
    "end_month": 2,
    "longitude": -70.0219,
    "latitude": -15.8402,
    "country": "Peru",
    "region": "South America",
    "scale": 7,
    "crowd_level": "busy",
    "booking_destination_id": null,
    "getyourguide_location_id": null
  },
  {
    "name": "Carnival of Recife",
    "slug": "carnival-of-recife",
    "category": "festival",
    "description": "Recife carnival with frevo music, massive puppet Bonecos de Olinda, and street processions.",
    "image_url": null,
    "start_month": 2,
    "end_month": 2,
    "longitude": -34.877,
    "latitude": -8.0476,
    "country": "Brazil",
    "region": "South America",
    "scale": 8,
    "crowd_level": "busy",
    "booking_destination_id": null,
    "getyourguide_location_id": null
  },
  {
    "name": "Semana Santa Ayacucho",
    "slug": "semana-santa-ayacucho",
    "category": "festival",
    "description": "Peru's most elaborate Holy Week with processions, bullfights, and traditional celebrations.",
    "image_url": null,
    "start_month": 3,
    "end_month": 4,
    "longitude": -74.2254,
    "latitude": -13.1588,
    "country": "Peru",
    "region": "South America",
    "scale": 6,
    "crowd_level": "busy",
    "booking_destination_id": null,
    "getyourguide_location_id": null
  },
  {
    "name": "Feria de las Flores",
    "slug": "feria-de-las-flores",
    "category": "festival",
    "description": "Medellin's flower festival with silleteros carrying elaborate flower displays on their backs.",
    "image_url": null,
    "start_month": 8,
    "end_month": 8,
    "longitude": -75.5812,
    "latitude": 6.2442,
    "country": "Colombia",
    "region": "South America",
    "scale": 8,
    "crowd_level": "busy",
    "booking_destination_id": null,
    "getyourguide_location_id": null
  },
  {
    "name": "Fiesta de la Mama Negra",
    "slug": "fiesta-de-la-mama-negra",
    "category": "festival",
    "description": "Latacunga festival blending indigenous, African, and Spanish traditions with costumed parades.",
    "image_url": null,
    "start_month": 9,
    "end_month": 9,
    "longitude": -78.6144,
    "latitude": -0.9346,
    "country": "Ecuador",
    "region": "South America",
    "scale": 5,
    "crowd_level": "moderate",
    "booking_destination_id": null,
    "getyourguide_location_id": null
  },
  {
    "name": "Tango Festival Buenos Aires",
    "slug": "tango-festival-buenos-aires",
    "category": "festival",
    "description": "World's largest tango event with milongas, championships, and free outdoor performances.",
    "image_url": null,
    "start_month": 8,
    "end_month": 8,
    "longitude": -58.3816,
    "latitude": -34.6037,
    "country": "Argentina",
    "region": "South America",
    "scale": 7,
    "crowd_level": "busy",
    "booking_destination_id": null,
    "getyourguide_location_id": null
  },
  {
    "name": "Diablada de Pillaro",
    "slug": "diablada-de-pillaro",
    "category": "festival",
    "description": "Ecuadorian New Year devil dance festival with thousands of masked dancers in Pillaro.",
    "image_url": null,
    "start_month": 1,
    "end_month": 1,
    "longitude": -78.5489,
    "latitude": -1.1644,
    "country": "Ecuador",
    "region": "South America",
    "scale": 5,
    "crowd_level": "moderate",
    "booking_destination_id": null,
    "getyourguide_location_id": null
  },
  {
    "name": "Festa Junina",
    "slug": "festa-junina",
    "category": "festival",
    "description": "Brazilian June festival with quadrilha dancing, bonfires, and forró music across the northeast.",
    "image_url": null,
    "start_month": 6,
    "end_month": 6,
    "longitude": -34.8611,
    "latitude": -7.115,
    "country": "Brazil",
    "region": "South America",
    "scale": 8,
    "crowd_level": "busy",
    "booking_destination_id": null,
    "getyourguide_location_id": null
  },
  {
    "name": "Lollapalooza Argentina",
    "slug": "lollapalooza-argentina",
    "category": "festival",
    "description": "South American edition of the major music festival at Hipodromo de San Isidro.",
    "image_url": null,
    "start_month": 3,
    "end_month": 3,
    "longitude": -58.4502,
    "latitude": -34.556,
    "country": "Argentina",
    "region": "South America",
    "scale": 8,
    "crowd_level": "busy",
    "booking_destination_id": null,
    "getyourguide_location_id": null
  },
  {
    "name": "Festival Internacional Cervantino",
    "slug": "festival-internacional-cervantino",
    "category": "festival",
    "description": "Guanajuato arts festival honoring Cervantes with theater, dance, music, and visual arts.",
    "image_url": null,
    "start_month": 10,
    "end_month": 10,
    "longitude": -101.2574,
    "latitude": 21.019,
    "country": "Mexico",
    "region": "North America",
    "scale": 7,
    "crowd_level": "busy",
    "booking_destination_id": null,
    "getyourguide_location_id": null
  },
  {
    "name": "Bonnaroo",
    "slug": "bonnaroo",
    "category": "festival",
    "description": "Multi-genre music festival on a 700-acre farm in Manchester, Tennessee.",
    "image_url": null,
    "start_month": 6,
    "end_month": 6,
    "longitude": -86.0629,
    "latitude": 35.4766,
    "country": "United States",
    "region": "North America",
    "scale": 8,
    "crowd_level": "busy",
    "booking_destination_id": null,
    "getyourguide_location_id": null
  },
  {
    "name": "Caribana",
    "slug": "caribana",
    "category": "festival",
    "description": "Toronto Caribbean carnival with mas bands, soca music, and the Grand Parade.",
    "image_url": null,
    "start_month": 7,
    "end_month": 8,
    "longitude": -79.3832,
    "latitude": 43.6532,
    "country": "Canada",
    "region": "North America",
    "scale": 7,
    "crowd_level": "busy",
    "booking_destination_id": null,
    "getyourguide_location_id": null
  },
  {
    "name": "Electric Daisy Carnival",
    "slug": "electric-daisy-carnival",
    "category": "festival",
    "description": "Las Vegas electronic dance music festival at the Speedway with 450,000 attendees.",
    "image_url": null,
    "start_month": 5,
    "end_month": 5,
    "longitude": -115.0029,
    "latitude": 36.2709,
    "country": "United States",
    "region": "North America",
    "scale": 9,
    "crowd_level": "busy",
    "booking_destination_id": null,
    "getyourguide_location_id": null
  },
  {
    "name": "South by Southwest",
    "slug": "south-by-southwest",
    "category": "festival",
    "description": "Austin mega-festival spanning music, film, and interactive technology sectors.",
    "image_url": null,
    "start_month": 3,
    "end_month": 3,
    "longitude": -97.7431,
    "latitude": 30.2672,
    "country": "United States",
    "region": "North America",
    "scale": 8,
    "crowd_level": "busy",
    "booking_destination_id": null,
    "getyourguide_location_id": null
  },
  {
    "name": "Essence Festival",
    "slug": "essence-festival",
    "category": "festival",
    "description": "New Orleans celebration of Black music and culture with major R&B and hip-hop artists.",
    "image_url": null,
    "start_month": 7,
    "end_month": 7,
    "longitude": -90.0715,
    "latitude": 29.9511,
    "country": "United States",
    "region": "North America",
    "scale": 8,
    "crowd_level": "busy",
    "booking_destination_id": null,
    "getyourguide_location_id": null
  },
  {
    "name": "Fiesta San Antonio",
    "slug": "fiesta-san-antonio",
    "category": "festival",
    "description": "Ten-day celebration in San Antonio with parades, Battle of Flowers, and Tex-Mex food.",
    "image_url": null,
    "start_month": 4,
    "end_month": 4,
    "longitude": -98.4936,
    "latitude": 29.4241,
    "country": "United States",
    "region": "North America",
    "scale": 7,
    "crowd_level": "busy",
    "booking_destination_id": null,
    "getyourguide_location_id": null
  },
  {
    "name": "Lollapalooza",
    "slug": "lollapalooza",
    "category": "festival",
    "description": "Major Chicago music festival in Grant Park featuring top rock, pop, and hip-hop acts.",
    "image_url": null,
    "start_month": 8,
    "end_month": 8,
    "longitude": -87.6298,
    "latitude": 41.8781,
    "country": "United States",
    "region": "North America",
    "scale": 9,
    "crowd_level": "busy",
    "booking_destination_id": null,
    "getyourguide_location_id": null
  },
  {
    "name": "ACL Festival",
    "slug": "acl-festival",
    "category": "festival",
    "description": "Austin City Limits Music Festival in Zilker Park with diverse lineups across eight stages.",
    "image_url": null,
    "start_month": 10,
    "end_month": 10,
    "longitude": -97.7476,
    "latitude": 30.264,
    "country": "United States",
    "region": "North America",
    "scale": 8,
    "crowd_level": "busy",
    "booking_destination_id": null,
    "getyourguide_location_id": null
  },
  {
    "name": "Outside Lands",
    "slug": "outside-lands",
    "category": "festival",
    "description": "San Francisco music festival in Golden Gate Park with food, wine, and comedy stages.",
    "image_url": null,
    "start_month": 8,
    "end_month": 8,
    "longitude": -122.4862,
    "latitude": 37.7694,
    "country": "United States",
    "region": "North America",
    "scale": 7,
    "crowd_level": "busy",
    "booking_destination_id": null,
    "getyourguide_location_id": null
  },
  {
    "name": "Stagecoach",
    "slug": "stagecoach",
    "category": "festival",
    "description": "Country music festival in Indio, California, the country counterpart to Coachella.",
    "image_url": null,
    "start_month": 4,
    "end_month": 4,
    "longitude": -116.2389,
    "latitude": 33.6803,
    "country": "United States",
    "region": "North America",
    "scale": 7,
    "crowd_level": "busy",
    "booking_destination_id": null,
    "getyourguide_location_id": null
  },
  {
    "name": "Governor's Ball",
    "slug": "governor-s-ball",
    "category": "festival",
    "description": "New York City music festival on Randall's Island with diverse genre lineups.",
    "image_url": null,
    "start_month": 6,
    "end_month": 6,
    "longitude": -73.9525,
    "latitude": 40.7933,
    "country": "United States",
    "region": "North America",
    "scale": 7,
    "crowd_level": "busy",
    "booking_destination_id": null,
    "getyourguide_location_id": null
  },